City_ID,City,Country,Date,Lat,Lng,Max Temp,Humidity,Cloudiness,Wind Speed,Description
0,Dakar,SN,2021-11-04,14.6937,-17.4441,88.68,79,0,6.91,clear sky
1,Husavik,IS,2021-11-04,66.0449,-17.3389,40.91,99,66,8.43,broken clouds
2,Rikitea,PF,2021-11-04,-23.1203,-134.9692,73.58,78,100,12.59,light rain
3,Lavrentiya,RU,2021-11-04,65.5833,-171.0,14.27,82,100,12.03,overcast clouds
4,Thinadhoo,MV,2021-11-04,0.5333,72.9333,83.5,67,100,13.15,overcast clouds
5,Bredasdorp,ZA,2021-11-04,-34.5322,20.0403,65.52,63,100,25.32,overcast clouds
6,Geraldton,AU,2021-11-04,-28.7667,114.6,63.01,77,90,12.66,overcast clouds
7,Kuntaur,GM,2021-11-04,13.6667,-14.8833,88.27,50,48,8.79,scattered clouds
8,Hithadhoo,MV,2021-11-04,-0.6,73.0833,82.31,74,83,9.69,broken clouds
9,Faya,SA,2021-11-04,18.3851,42.4509,64.51,35,0,3.24,clear sky
10,Vaini,TO,2021-11-04,-21.2,-175.2,75.36,100,75,5.75,light rain
11,Venice,US,2021-11-04,27.0998,-82.4543,77.99,81,1,5.01,clear sky
12,Alofi,NU,2021-11-04,-19.0595,-169.9187,75.09,88,100,3.44,overcast clouds
13,Kattivakkam,IN,2021-11-04,13.2167,80.3167,78.89,85,98,5.64,overcast clouds
14,Kavieng,PG,2021-11-04,-2.5744,150.7967,82.35,71,100,15.64,overcast clouds
15,Faanui,PF,2021-11-04,-16.4833,-151.75,78.82,75,24,10.8,few clouds
16,Port Blair,IN,2021-11-04,11.6667,92.75,80.64,74,37,1.39,scattered clouds
17,Carnarvon,AU,2021-11-04,-24.8667,113.6333,66.27,68,90,19.57,overcast clouds
18,Beringovskiy,RU,2021-11-04,63.05,179.3167,-3.69,89,28,8.01,scattered clouds
19,Leticia,CO,2021-11-04,-4.2153,-69.9406,89.65,62,75,4.61,broken clouds
20,Hobart,AU,2021-11-04,-42.8794,147.3294,48.11,88,0,1.99,clear sky
21,Buala,SB,2021-11-04,-8.145,159.5921,79.56,80,100,5.5,overcast clouds
22,Avarua,CK,2021-11-04,-21.2078,-159.775,75.25,73,29,4.61,light rain
23,Port Elizabeth,ZA,2021-11-04,-33.918,25.5701,64.69,68,0,4.61,clear sky
24,Kapaa,US,2021-11-04,22.0752,-159.319,75.52,83,90,3.0,heavy intensity rain
25,Itarema,BR,2021-11-04,-2.9248,-39.9167,86.92,56,44,13.71,scattered clouds
26,Sao Jose Do Belmonte,BR,2021-11-04,-7.8614,-38.7597,97.81,21,42,7.94,scattered clouds
27,Deputatskiy,RU,2021-11-04,69.3,139.9,-8.09,99,85,3.6,overcast clouds
28,Nome,US,2021-11-04,64.5011,-165.4064,14.07,85,90,0.0,overcast clouds
29,Caborca,MX,2021-11-04,30.5838,-111.101,81.5,13,0,1.48,clear sky
30,Sovetskaya Gavan,RU,2021-11-04,48.9723,140.2878,34.74,83,39,3.67,scattered clouds
31,Busselton,AU,2021-11-04,-33.65,115.3333,50.09,85,5,3.33,clear sky
32,Mataura,NZ,2021-11-04,-46.1927,168.8643,47.48,92,83,0.98,broken clouds
33,Saint George,US,2021-11-04,37.1041,-113.5841,75.67,46,1,1.01,clear sky
34,Ushuaia,AR,2021-11-04,-54.8,-68.3,55.06,44,75,8.05,broken clouds
35,Kresttsy,RU,2021-11-04,58.2452,32.5165,42.64,93,66,6.98,broken clouds
36,Vardo,NO,2021-11-04,70.3705,31.1107,33.78,80,75,8.05,broken clouds
37,Chara,RU,2021-11-04,56.9064,118.2631,8.13,85,100,6.42,light snow
38,Poronaysk,RU,2021-11-04,49.2167,143.1167,34.9,89,69,6.38,broken clouds
39,Hinton,CA,2021-11-04,53.4001,-117.5857,42.1,77,62,2.86,broken clouds
40,Jamestown,US,2021-11-04,42.097,-79.2353,45.3,62,90,1.99,overcast clouds
41,Saldanha,ZA,2021-11-04,-33.0117,17.9442,66.25,85,95,9.89,overcast clouds
42,Port Lincoln,AU,2021-11-04,-34.7333,135.8667,57.24,86,58,11.72,broken clouds
43,Longyearbyen,SJ,2021-11-04,78.2186,15.6401,19.24,73,40,9.22,scattered clouds
44,Provideniya,RU,2021-11-04,64.3833,-173.3,13.93,79,98,9.8,overcast clouds
45,San Julian,MX,2021-11-04,21.0167,-102.1667,74.19,33,24,4.36,few clouds
46,Hilo,US,2021-11-04,19.7297,-155.09,79.29,76,20,5.75,few clouds
47,Chuy,UY,2021-11-04,-33.6971,-53.4616,74.73,73,77,7.99,broken clouds
48,Pernik,BG,2021-11-04,42.6,23.0333,56.8,84,94,6.02,overcast clouds
49,New Norfolk,AU,2021-11-04,-42.7826,147.0587,47.75,76,1,2.15,clear sky
50,Cherskiy,RU,2021-11-04,68.75,161.3,-5.28,99,99,6.26,overcast clouds
51,Talnakh,RU,2021-11-04,69.4865,88.3972,15.62,97,100,15.84,snow
52,Thompson,CA,2021-11-04,55.7435,-97.8558,28.56,93,75,3.44,broken clouds
53,Xining,CN,2021-11-04,36.6167,101.7667,38.73,45,39,2.15,scattered clouds
54,Ilulissat,GL,2021-11-04,69.2167,-51.1,32.02,55,75,14.97,broken clouds
55,Awbari,LY,2021-11-04,26.5921,12.7805,80.49,14,17,11.16,few clouds
56,Torbay,CA,2021-11-04,47.6666,-52.7314,49.57,73,75,25.32,broken clouds
57,Erseke,AL,2021-11-04,40.3378,20.6789,54.1,77,92,5.19,overcast clouds
58,Bandarbeyla,SO,2021-11-04,9.4942,50.8122,78.42,72,0,11.92,clear sky
59,Albany,US,2021-11-04,42.6001,-73.9662,47.39,60,45,1.19,scattered clouds
60,Punta Arenas,CL,2021-11-04,-53.15,-70.9167,53.71,62,75,40.29,light intensity shower rain
61,Esperance,AU,2021-11-04,-33.8667,121.9,62.44,94,31,13.0,scattered clouds
62,Georgetown,MY,2021-11-04,5.4112,100.3354,79.95,93,20,5.01,few clouds
63,Ngong,KE,2021-11-04,-1.3618,36.6566,64.78,68,92,9.82,light rain
64,Neuquen,AR,2021-11-04,-38.9516,-68.0591,64.29,16,0,18.41,clear sky
65,Vila Franca Do Campo,PT,2021-11-04,37.7167,-25.4333,70.2,80,100,15.35,overcast clouds
66,Bereda,ES,2021-11-04,43.2686,-7.5406,49.75,98,31,2.26,scattered clouds
67,Norman Wells,CA,2021-11-04,65.282,-126.8329,14.04,92,20,4.61,few clouds
68,Cape Town,ZA,2021-11-04,-33.9258,18.4232,66.27,78,20,1.01,few clouds
69,Floro,NO,2021-11-04,61.5996,5.0328,43.97,87,40,6.91,scattered clouds
70,Dikson,RU,2021-11-04,73.5069,80.5464,21.61,83,100,12.33,overcast clouds
71,East London,ZA,2021-11-04,-33.0153,27.9116,67.14,88,0,3.44,clear sky
72,Sisimiut,GL,2021-11-04,66.9395,-53.6735,31.1,72,100,22.28,overcast clouds
73,La Tuque,CA,2021-11-04,47.4334,-72.7824,35.85,51,77,2.3,broken clouds
74,Codrington,AU,2021-11-04,-38.2667,141.9667,42.57,95,1,5.93,clear sky
75,Zheshart,RU,2021-11-04,62.0731,49.5733,34.14,98,100,9.6,light rain
76,Finschhafen,PG,2021-11-04,-6.6024,147.8681,78.78,79,96,4.85,overcast clouds
77,Qaanaaq,GL,2021-11-04,77.484,-69.3632,7.83,52,0,7.07,clear sky
78,Llangefni,GB,2021-11-04,53.2556,-4.3106,49.86,73,75,16.11,broken clouds
79,Atambua,ID,2021-11-04,-9.1061,124.8925,76.32,87,100,2.66,overcast clouds
80,Kavaratti,IN,2021-11-04,10.5669,72.642,81.48,80,100,11.16,overcast clouds
81,Nikki,BJ,2021-11-04,9.9401,3.2108,84.24,40,9,3.53,clear sky
82,Bambous Virieux,MU,2021-11-04,-20.3428,57.7575,73.65,83,20,3.44,few clouds
83,Nongan,CN,2021-11-04,44.382,125.1685,39.61,86,1,6.6,clear sky
84,Killarney,IE,2021-11-04,52.05,-9.5167,46.45,100,75,0.0,broken clouds
85,Upernavik,GL,2021-11-04,72.7868,-56.1549,27.07,81,97,18.45,overcast clouds
86,Port Alfred,ZA,2021-11-04,-33.5906,26.891,66.06,89,8,5.93,clear sky
87,Whitehorse,CA,2021-11-04,60.7161,-135.0538,18.37,93,40,0.0,scattered clouds
88,Ponta Do Sol,PT,2021-11-04,32.6667,-17.1,69.12,53,65,8.01,broken clouds
89,Flagstaff,US,2021-11-04,35.1981,-111.6513,63.52,32,1,3.0,clear sky
90,San Quintin,MX,2021-11-04,30.4833,-115.95,69.93,66,14,7.58,few clouds
91,Sorkjosen,NO,2021-11-04,69.8,20.9333,37.4,81,75,13.8,broken clouds
92,Tiksi,RU,2021-11-04,71.6872,128.8694,1.62,78,100,21.94,overcast clouds
93,Constantine,DZ,2021-11-04,36.365,6.6147,56.61,76,75,6.91,broken clouds
94,Atuona,PF,2021-11-04,-9.8,-139.0333,77.4,67,79,16.24,broken clouds
95,Airai,TL,2021-11-04,-8.9266,125.4092,62.53,81,98,2.17,overcast clouds
96,Monrovia,LR,2021-11-04,6.3005,-10.7969,85.77,77,24,7.05,light rain
97,Camopi,GF,2021-11-04,3.1655,-52.3158,85.44,56,74,2.68,broken clouds
98,Santa Isabel Do Rio Negro,BR,2021-11-04,-0.4139,-65.0192,89.33,57,91,4.0,overcast clouds
99,Kalispell,US,2021-11-04,48.1958,-114.3129,49.03,93,90,0.0,mist
100,Arraial Do Cabo,BR,2021-11-04,-22.9661,-42.0278,76.96,78,40,10.36,scattered clouds
101,Laguna,US,2021-11-04,38.421,-121.4238,66.07,81,1,5.01,clear sky
102,Hermanus,ZA,2021-11-04,-34.4187,19.2345,64.9,84,95,10.94,overcast clouds
103,Kitimat,CA,2021-11-04,54.0524,-128.6534,43.18,29,100,2.01,moderate rain
104,Uige,AO,2021-11-04,-7.6087,15.0613,69.55,89,96,2.86,light rain
105,Lagoa,PT,2021-11-04,39.05,-27.9833,67.3,84,99,24.79,overcast clouds
106,Zemio,CF,2021-11-04,5.0314,25.1361,71.4,94,60,2.73,moderate rain
107,Solnechnyy,RU,2021-11-04,50.7214,136.6319,30.87,76,10,2.15,clear sky
108,Barrow,US,2021-11-04,71.2906,-156.7887,24.82,80,90,16.11,overcast clouds
109,Steamboat Springs,US,2021-11-04,40.485,-106.8317,49.71,83,1,0.0,clear sky
110,Maua,BR,2021-11-04,-23.6678,-46.4614,84.07,68,0,8.46,clear sky
111,Tokoroa,NZ,2021-11-04,-38.2333,175.8667,57.15,77,89,5.99,overcast clouds
112,Totness,SR,2021-11-04,5.8833,-56.3167,85.3,68,22,11.72,few clouds
113,Madridejos,ES,2021-11-04,39.4682,-3.532,48.34,57,10,11.03,light rain
114,Soderhamn,SE,2021-11-04,61.3037,17.0592,41.74,94,100,0.27,overcast clouds
115,Port Macquarie,AU,2021-11-04,-31.4333,152.9167,63.9,77,100,7.16,overcast clouds
116,Kodiak,US,2021-11-04,57.79,-152.4072,34.72,76,30,9.08,scattered clouds
117,Sitka,US,2021-11-04,57.0531,-135.33,37.29,87,75,3.44,broken clouds
118,Castro,BR,2021-11-04,-24.7911,-50.0119,71.67,70,40,2.08,scattered clouds
119,Bathsheba,BB,2021-11-04,13.2167,-59.5167,88.41,62,20,20.71,few clouds
120,Qandala,SO,2021-11-04,11.472,49.8728,80.19,48,3,5.41,clear sky
121,Coahuayana,MX,2021-11-04,18.7333,-103.6833,89.13,54,78,3.6,broken clouds
122,Palmer,US,2021-11-04,42.1584,-72.3287,50.65,43,75,1.99,broken clouds
123,Bilibino,RU,2021-11-04,68.0546,166.4372,-15.18,99,94,2.48,overcast clouds
124,Butaritari,KI,2021-11-04,3.0707,172.7902,83.01,72,8,15.93,clear sky
125,Hasaki,JP,2021-11-04,35.7333,140.8333,50.4,53,33,14.25,scattered clouds
126,Bluff,NZ,2021-11-04,-46.6,168.3333,47.8,83,100,0.87,overcast clouds
127,Kokstad,ZA,2021-11-04,-30.5472,29.4241,58.78,93,60,2.73,broken clouds
128,Hualmay,PE,2021-11-04,-11.0964,-77.6139,69.26,69,62,10.56,broken clouds
129,Flinders,AU,2021-11-04,-34.5833,150.8552,64.2,93,100,1.01,light rain
130,Asau,RO,2021-11-04,46.4333,26.4,52.72,63,40,5.55,scattered clouds
131,Ulaangom,MN,2021-11-04,49.9811,92.0667,10.06,42,1,4.43,clear sky
132,Iquitos,PE,2021-11-04,-3.7481,-73.2472,80.64,78,75,4.61,broken clouds
133,Tasiilaq,GL,2021-11-04,65.6145,-37.6368,30.36,84,78,7.38,broken clouds
134,Cockburn Town,TC,2021-11-04,21.4612,-71.1419,85.96,66,40,11.5,scattered clouds
135,Cidreira,BR,2021-11-04,-30.1811,-50.2056,70.65,89,42,9.37,scattered clouds
136,Villamontes,BO,2021-11-04,-21.25,-63.5,99.84,32,99,17.27,overcast clouds
137,Kenai,US,2021-11-04,60.5544,-151.2583,37.49,96,90,8.05,light rain
138,Folldal,NO,2021-11-04,62.1325,9.9968,28.38,88,78,3.13,broken clouds
139,Yellowknife,CA,2021-11-04,62.456,-114.3525,38.41,94,20,6.91,few clouds
140,Koson,UZ,2021-11-04,39.0375,65.585,37.72,22,1,16.11,clear sky
141,Tuktoyaktuk,CA,2021-11-04,69.4541,-133.0374,24.8,93,90,17.27,overcast clouds
142,Saskylakh,RU,2021-11-04,71.9167,114.0833,0.41,91,90,13.44,overcast clouds
143,Vila Velha,BR,2021-11-04,-20.3297,-40.2925,76.95,78,75,16.11,broken clouds
144,Aswan,EG,2021-11-04,24.0934,32.907,88.9,23,0,6.91,clear sky
145,San Cristobal,VE,2021-11-04,7.7669,-72.225,80.78,59,70,1.57,broken clouds
146,Serra Talhada,BR,2021-11-04,-7.9919,-38.2983,99.0,20,39,10.36,scattered clouds
147,Clyde River,CA,2021-11-04,70.4692,-68.5914,21.78,83,100,26.24,light snow
148,Cap Malheureux,MU,2021-11-04,-19.9842,57.6142,73.89,75,1,3.0,clear sky
149,Iqaluit,CA,2021-11-04,63.7506,-68.5145,19.13,79,75,4.0,light snow
150,Lungi,SL,2021-11-04,9.2212,-12.6831,80.78,79,6,2.91,moderate rain
151,Susanville,US,2021-11-04,40.4163,-120.653,55.09,57,1,12.66,clear sky
152,Miles City,US,2021-11-04,46.4083,-105.8406,49.17,57,1,12.66,clear sky
153,Blagoyevo,RU,2021-11-04,63.3667,47.9167,34.18,98,100,8.63,light rain
154,Beyneu,KZ,2021-11-04,45.3167,55.2,35.11,53,61,17.76,broken clouds
155,Pisco,PE,2021-11-04,-13.7,-76.2167,69.03,73,0,12.66,clear sky
156,Lieksa,FI,2021-11-04,63.3167,30.0167,45.18,95,100,10.83,overcast clouds
157,Karwar,IN,2021-11-04,14.8,74.1333,77.88,87,100,10.07,light rain
158,Chokurdakh,RU,2021-11-04,70.6333,147.9167,-11.11,97,91,7.16,overcast clouds
159,Sobolevo,RU,2021-11-04,54.4299,31.8996,45.1,83,99,13.31,light rain
160,Sao Joao Da Barra,BR,2021-11-04,-21.6403,-41.0511,80.69,75,77,14.25,broken clouds
161,Haines Junction,CA,2021-11-04,60.7522,-137.5108,31.42,77,97,2.46,overcast clouds
162,Katherine,AU,2021-11-04,-14.4667,132.2667,80.92,74,56,3.44,broken clouds
163,Inta,RU,2021-11-04,66.0317,60.1659,33.55,97,100,24.76,overcast clouds
164,Pacific Grove,US,2021-11-04,36.6177,-121.9166,64.62,89,90,1.01,overcast clouds
165,Hoquiam,US,2021-11-04,46.9809,-123.8893,57.52,68,90,16.11,mist
166,Puerto Ayora,EC,2021-11-04,-0.7393,-90.3518,75.16,72,67,9.84,broken clouds
167,Coihaique,CL,2021-11-04,-45.5752,-72.0662,51.75,54,90,9.22,overcast clouds
168,Sembakung,ID,2021-11-04,3.8167,117.25,73.65,99,98,1.45,overcast clouds
169,Boca Do Acre,BR,2021-11-04,-8.7522,-67.3978,95.05,39,68,3.91,broken clouds
170,Kruisfontein,ZA,2021-11-04,-34.0033,24.7314,61.88,85,34,3.69,scattered clouds
171,Burns Lake,CA,2021-11-04,54.2331,-125.7533,36.82,99,100,2.39,light rain
172,Tallahassee,US,2021-11-04,30.4383,-84.2807,71.67,73,1,1.01,clear sky
173,Ereymentau,KZ,2021-11-04,51.6199,73.1033,13.91,83,42,16.55,scattered clouds
174,Porto Novo,BJ,2021-11-04,6.4965,2.6036,84.02,80,51,7.4,broken clouds
175,Poitiers,FR,2021-11-04,46.5833,0.3333,49.78,51,20,2.3,few clouds
176,Tshikapa,CD,2021-11-04,-6.4167,20.8,74.79,77,24,3.38,few clouds
177,Leningradskiy,RU,2021-11-04,69.3833,178.4167,-9.35,94,54,5.95,broken clouds
178,Ciudad Real,ES,2021-11-04,39.0,-4.0,49.14,83,50,11.52,scattered clouds
179,Bentiu,SS,2021-11-04,9.2333,29.8333,73.87,78,88,7.85,light rain
180,Sortavala,RU,2021-11-04,61.7053,30.6918,45.39,94,98,9.42,overcast clouds
181,Severo-Kurilsk,RU,2021-11-04,50.6789,156.125,36.07,81,79,3.4,broken clouds
182,Lasa,IT,2021-11-04,46.6166,10.7002,38.28,94,79,3.04,broken clouds
183,Pangkalanbuun,ID,2021-11-04,-2.6833,111.6167,75.76,95,100,1.86,overcast clouds
184,Paamiut,GL,2021-11-04,61.994,-49.6678,31.55,88,100,3.96,light snow
185,Portland,US,2021-11-04,45.5234,-122.6762,61.45,83,90,5.01,overcast clouds
186,Quelimane,MZ,2021-11-04,-17.8786,36.8883,80.55,78,40,11.99,scattered clouds
187,Nanortalik,GL,2021-11-04,60.1432,-45.2371,36.68,90,100,2.75,light rain
188,Castlebar,IE,2021-11-04,53.85,-9.3,49.59,86,54,6.13,broken clouds
189,Inirida,CO,2021-11-04,3.8653,-67.9239,87.93,67,77,1.45,broken clouds
190,Noumea,NC,2021-11-04,-22.2763,166.4572,62.58,78,93,9.84,overcast clouds
191,Brae,GB,2021-11-04,60.3964,-1.353,46.31,83,99,14.83,overcast clouds
192,Sayla,IN,2021-11-04,22.55,71.4667,77.13,29,44,6.46,scattered clouds
193,Sibu,MY,2021-11-04,2.3,111.8167,77.31,94,40,1.99,scattered clouds
194,Oistins,BB,2021-11-04,13.0667,-59.5333,87.89,62,20,20.71,few clouds
195,Pevek,RU,2021-11-04,69.7008,170.3133,-11.79,95,99,6.91,overcast clouds
196,Miyako,JP,2021-11-04,39.6367,141.9525,49.39,79,37,6.64,scattered clouds
197,Banjar,ID,2021-11-04,-8.19,114.9675,78.66,87,100,3.02,light rain
198,Beni,CD,2021-11-04,0.5,29.4667,63.23,99,100,2.98,overcast clouds
199,Hami,CN,2021-11-04,42.8,93.45,35.82,36,100,19.35,overcast clouds
200,Ambilobe,MG,2021-11-04,-13.2,49.05,76.6,78,86,2.21,overcast clouds
201,Baijiantan,CN,2021-11-04,45.6333,85.1833,18.01,49,0,10.42,clear sky
202,Avera,US,2021-11-04,33.194,-82.5271,58.51,71,100,11.43,overcast clouds
203,Veraval,IN,2021-11-04,20.9,70.3667,79.03,52,91,6.6,overcast clouds
204,Saint-Philippe,RE,2021-11-04,-21.3585,55.7679,74.79,81,28,5.41,scattered clouds
205,Nemuro,JP,2021-11-04,43.3236,145.575,48.72,76,98,12.57,overcast clouds
206,Sesheke,ZM,2021-11-04,-17.4759,24.2968,81.9,40,86,4.76,overcast clouds
207,Kaitangata,NZ,2021-11-04,-46.2817,169.8464,43.14,79,66,3.98,broken clouds
208,Taltal,CL,2021-11-04,-25.4,-70.4833,63.91,69,16,5.68,few clouds
209,Port Shepstone,ZA,2021-11-04,-30.7414,30.455,69.78,82,97,16.2,overcast clouds
210,Hearst,CA,2021-11-04,49.6835,-83.6665,41.25,56,96,9.57,overcast clouds
211,La Mana,EC,2021-11-04,-0.9333,-79.2167,94.21,69,88,3.24,overcast clouds
212,Ozinki,RU,2021-11-04,51.1786,49.6769,37.87,27,100,15.28,moderate rain
213,Corralillo,CU,2021-11-04,22.9819,-80.5856,81.75,69,96,9.19,overcast clouds
214,Samarai,PG,2021-11-04,-10.6167,150.6667,80.29,81,71,8.75,broken clouds
215,Nador,MA,2021-11-04,35.174,-2.9287,60.87,55,20,6.91,few clouds
216,Bilma,NE,2021-11-04,18.6853,12.9164,85.23,13,1,6.76,clear sky
217,Bethel,US,2021-11-04,41.3712,-73.414,51.12,47,1,3.44,clear sky
218,Nalut,LY,2021-11-04,30.3333,10.85,79.03,16,89,4.97,overcast clouds
219,Luau,AO,2021-11-04,-10.7073,22.2247,73.09,68,75,4.43,broken clouds
220,Touros,BR,2021-11-04,-5.1989,-35.4608,88.7,62,29,12.77,scattered clouds
221,Lorengau,PG,2021-11-04,-2.0226,147.2712,80.58,83,100,6.11,light rain
222,Quesnel,CA,2021-11-04,52.9999,-122.5029,48.7,87,90,6.91,overcast clouds
223,Tautira,PF,2021-11-04,-17.7333,-149.15,80.62,76,65,14.09,broken clouds
224,Hauterive,FR,2021-11-04,46.0901,3.4459,47.16,93,96,2.64,overcast clouds
225,Statesboro,US,2021-11-04,32.4488,-81.7832,63.25,55,90,10.36,overcast clouds
226,Kundiawa,PG,2021-11-04,-6.0167,144.9667,61.39,98,100,2.89,overcast clouds
227,Sikeston,US,2021-11-04,36.8767,-89.5879,51.69,46,1,8.05,clear sky
228,Karasjok,NO,2021-11-04,69.4719,25.5112,30.31,92,94,3.4,overcast clouds
229,Praia,CV,2021-11-04,14.9215,-23.5087,84.74,61,0,11.5,clear sky
230,Ostrovnoy,RU,2021-11-04,68.0531,39.5131,36.81,92,100,16.8,overcast clouds
231,Farmington,US,2021-11-04,36.7281,-108.2187,59.86,37,0,4.0,clear sky
232,Shakawe,BW,2021-11-04,-18.3667,21.85,86.23,27,62,7.2,broken clouds
233,Mar Del Plata,AR,2021-11-04,-38.0023,-57.5575,68.02,99,75,13.0,broken clouds
234,Coquimbo,CL,2021-11-04,-29.9533,-71.3436,62.33,67,40,17.27,scattered clouds
235,Bambanglipuro,ID,2021-11-04,-7.95,110.2833,66.6,85,100,1.14,overcast clouds
236,Gorontalo,ID,2021-11-04,0.5412,123.0595,75.04,95,99,3.27,overcast clouds
237,Quatre Cocos,MU,2021-11-04,-20.2078,57.7625,73.51,73,0,8.84,clear sky
238,General Pico,AR,2021-11-04,-35.6566,-63.7568,49.48,76,100,18.14,overcast clouds
239,Turukhansk,RU,2021-11-04,65.8167,87.9833,21.29,95,100,21.07,snow
240,Creel,MX,2021-11-04,27.75,-107.6333,62.56,36,0,6.08,clear sky
241,Tocopilla,CL,2021-11-04,-22.092,-70.1979,66.9,64,7,8.1,clear sky
242,Aklavik,CA,2021-11-04,68.2191,-135.0107,18.43,92,40,0.0,scattered clouds
243,Namatanai,PG,2021-11-04,-3.6667,152.4333,80.08,75,100,10.45,overcast clouds
244,Jieshi,CN,2021-11-04,22.8134,115.8257,73.02,84,36,11.99,scattered clouds
245,Mount Gambier,AU,2021-11-04,-37.8333,140.7667,42.71,93,75,8.05,fog
246,Atar,MR,2021-11-04,20.5169,-13.0499,90.75,14,21,9.24,few clouds
247,Diban,SY,2021-11-04,35.0365,40.5167,72.03,35,1,7.54,clear sky
248,Harindanga,IN,2021-11-04,22.0383,88.3214,75.18,67,7,5.14,clear sky
249,Zakamensk,RU,2021-11-04,50.3741,103.2863,4.19,69,9,2.37,clear sky
250,Neftcala,AZ,2021-11-04,39.3742,49.2472,63.16,70,100,13.71,overcast clouds
251,Ulundi,ZA,2021-11-04,-28.3352,31.4162,65.19,85,8,4.99,clear sky
252,Lethem,GY,2021-11-04,3.3803,-59.7968,97.59,32,13,11.16,few clouds
253,Svetlaya,RU,2021-11-04,46.5389,138.3297,40.14,76,11,4.18,few clouds
254,Shimoda,JP,2021-11-04,34.6667,138.95,56.1,74,5,7.29,clear sky
255,Banda Aceh,ID,2021-11-04,5.5577,95.3222,78.35,82,100,4.43,overcast clouds
256,Calvinia,ZA,2021-11-04,-31.4707,19.776,65.64,35,21,6.98,few clouds
257,Yerbogachen,RU,2021-11-04,61.2767,108.0108,-2.02,95,21,8.14,few clouds
258,Kirovskiy,RU,2021-11-04,45.0917,133.5136,38.79,90,5,2.26,clear sky
259,Sumbe,AO,2021-11-04,-11.2061,13.8437,76.82,83,99,7.72,overcast clouds
260,Villa Carlos Paz,AR,2021-11-04,-31.4241,-64.4978,68.25,93,86,17.0,overcast clouds
261,Lalibela,ET,2021-11-04,12.0333,39.0333,58.93,39,40,9.4,scattered clouds
262,Mahebourg,MU,2021-11-04,-20.4081,57.7,73.69,83,20,3.44,few clouds
263,Port Hedland,AU,2021-11-04,-20.3167,118.5667,75.25,69,0,9.22,clear sky
264,Nuuk,GL,2021-11-04,64.1835,-51.7216,27.88,100,100,8.99,overcast clouds
265,Rochefort,FR,2021-11-04,45.9167,-1.0,51.85,79,49,7.0,scattered clouds
266,San Patricio,US,2021-11-04,28.017,-97.5169,57.29,78,98,14.07,overcast clouds
267,Khatassy,RU,2021-11-04,61.9036,129.6383,8.58,98,100,4.29,overcast clouds
268,Olafsvik,IS,2021-11-04,64.8945,-23.7142,43.11,79,100,16.15,moderate rain
269,Flin Flon,CA,2021-11-04,54.7682,-101.865,37.24,75,20,4.61,few clouds
270,Khatanga,RU,2021-11-04,71.9667,102.5,22.69,95,100,21.72,snow
271,Maldonado,UY,2021-11-04,-34.6667,-54.9167,72.79,73,87,5.79,overcast clouds
272,Lundazi,ZM,2021-11-04,-12.2929,33.1782,77.25,36,4,7.49,clear sky
273,Raudeberg,NO,2021-11-04,61.9875,5.1352,45.19,94,66,4.0,light rain
274,Oussouye,SN,2021-11-04,12.485,-16.5469,93.38,85,59,10.51,moderate rain
275,Puerto Del Rosario,ES,2021-11-04,28.5004,-13.8627,71.35,73,40,16.11,scattered clouds
276,Guerrero Negro,MX,2021-11-04,27.9769,-114.0611,72.66,63,0,8.28,clear sky
277,Isangel,VU,2021-11-04,-19.55,169.2667,73.81,87,98,13.2,overcast clouds
278,Hobyo,SO,2021-11-04,5.3505,48.5268,80.78,71,27,12.82,scattered clouds
279,Grindavik,IS,2021-11-04,63.8424,-22.4338,43.27,81,75,16.11,broken clouds
280,Nelidovo,RU,2021-11-04,56.2211,32.7774,42.98,87,97,7.25,overcast clouds
281,Tabuk,PH,2021-11-04,17.4189,121.4443,70.47,90,73,2.64,broken clouds
282,Vila,PT,2021-11-04,42.0304,-8.1588,46.92,88,50,4.32,light rain
283,Valdivia,CL,2021-11-04,-39.8142,-73.2459,57.29,43,60,6.53,broken clouds
284,Marsh Harbour,BS,2021-11-04,26.5412,-77.0636,78.4,59,95,5.19,overcast clouds
285,Queimadas,BR,2021-11-04,-10.9783,-39.6264,88.47,46,95,11.68,moderate rain
286,Labuhan,ID,2021-11-04,-6.8844,112.2051,78.13,83,100,6.89,overcast clouds
287,Necochea,AR,2021-11-04,-38.5473,-58.7368,63.03,97,100,7.67,overcast clouds
288,Hofn,IS,2021-11-04,64.2539,-15.2082,35.62,75,75,4.61,broken clouds
289,Roebourne,AU,2021-11-04,-20.7833,117.1333,77.76,53,16,10.89,few clouds
290,Nouakchott,MR,2021-11-04,18.0858,-15.9785,87.73,47,70,14.34,broken clouds
291,Fortuna,US,2021-11-04,40.5982,-124.1573,56.93,74,75,1.01,broken clouds
292,Lebu,CL,2021-11-04,-37.6167,-73.65,55.29,52,2,18.5,clear sky
293,Boyabat,TR,2021-11-04,41.4689,34.7667,59.43,74,4,0.92,clear sky
294,Bintulu,MY,2021-11-04,3.1667,113.0333,77.41,94,40,0.0,scattered clouds
295,Panzhihua,CN,2021-11-04,26.5851,101.7128,55.8,78,9,1.34,clear sky
296,Tacoronte,ES,2021-11-04,28.4769,-16.4102,68.25,82,90,10.0,overcast clouds
297,Dourados,BR,2021-11-04,-22.2211,-54.8056,97.7,25,15,5.06,few clouds
298,Onda,ES,2021-11-04,39.9667,-0.25,58.87,66,83,2.82,broken clouds
299,Kangaatsiaq,GL,2021-11-04,68.3065,-53.4641,33.3,72,100,16.6,overcast clouds
300,Artigas,UY,2021-11-04,-30.4,-56.4667,87.64,37,0,2.62,clear sky
301,Yulara,AU,2021-11-04,-25.2406,130.9889,75.04,57,86,6.91,overcast clouds
302,Sao Filipe,CV,2021-11-04,14.8961,-24.4956,80.67,70,96,7.2,overcast clouds
303,Puerto Escondido,MX,2021-11-04,15.85,-97.0667,84.65,62,86,4.45,overcast clouds
304,Nouadhibou,MR,2021-11-04,20.931,-17.0347,69.06,80,63,19.17,broken clouds
305,Adeje,ES,2021-11-04,28.1227,-16.726,72.48,75,75,21.85,broken clouds
306,Botwood,CA,2021-11-04,49.1499,-55.3482,39.9,91,100,13.33,overcast clouds
307,Ukiah,US,2021-11-04,39.1502,-123.2078,62.01,87,90,0.0,light rain
308,Pochutla,MX,2021-11-04,15.7432,-96.4661,89.82,53,100,4.94,overcast clouds
309,Rio Cuarto,AR,2021-11-04,-33.1307,-64.3499,51.57,93,90,26.46,drizzle
310,Bengkulu,ID,2021-11-04,-3.8004,102.2655,75.7,89,98,3.96,moderate rain
311,Broken Arrow,US,2021-11-04,36.0526,-95.7908,57.72,65,40,1.01,scattered clouds
312,Matadi,CD,2021-11-04,-5.8167,13.45,81.54,73,81,3.36,light rain
313,Kahului,US,2021-11-04,20.8947,-156.47,77.85,88,18,7.0,light rain
314,Nikolskoye,RU,2021-11-04,59.7035,30.7861,47.39,93,44,6.2,scattered clouds
315,Rwamagana,RW,2021-11-04,-1.9487,30.4347,65.64,94,98,1.57,overcast clouds
316,Rawah,IQ,2021-11-04,34.4816,41.9093,72.27,36,1,9.06,clear sky
317,Sarangani,PH,2021-11-04,5.4033,125.4636,83.19,75,86,10.4,overcast clouds
318,Tuatapere,NZ,2021-11-04,-46.1333,167.6833,47.82,95,100,2.04,overcast clouds
319,Ocos,GT,2021-11-04,14.5094,-92.1933,90.32,73,97,4.18,overcast clouds
320,Paramonga,PE,2021-11-04,-10.6667,-77.8333,68.9,70,34,10.74,scattered clouds
321,Broome,US,2021-11-04,42.2506,-75.833,46.45,62,90,1.99,overcast clouds
322,Fairbanks,US,2021-11-04,64.8378,-147.7164,21.97,91,40,0.0,scattered clouds
323,Robertson,US,2021-11-04,36.5167,-86.8667,52.75,48,1,10.36,clear sky
324,Pervomaysk,UA,2021-11-04,48.0443,30.8507,55.47,93,93,15.66,overcast clouds
325,Yatou,CN,2021-11-04,37.15,122.3833,56.71,83,11,6.6,few clouds
326,Egvekinot,RU,2021-11-04,66.3167,-179.1667,-2.63,81,95,9.98,overcast clouds
327,Rawson,AR,2021-11-04,-43.3002,-65.1023,64.09,20,0,16.93,clear sky
328,Wakkanai,JP,2021-11-04,45.4094,141.6739,47.37,86,91,10.87,overcast clouds
329,Gonbad-E Qabus,IR,2021-11-04,37.25,55.1672,59.95,89,98,3.91,overcast clouds
330,Alvorada,BR,2021-11-04,-12.48,-49.1247,81.7,73,95,5.97,overcast clouds
331,Birao,CF,2021-11-04,10.2849,22.7882,83.91,39,72,4.27,broken clouds
332,Manaure,CO,2021-11-04,11.7751,-72.4445,88.68,59,41,11.21,scattered clouds
333,Storslett,NO,2021-11-04,69.7678,21.0247,37.4,81,75,13.8,broken clouds
334,Avallon,FR,2021-11-04,47.4833,3.9,42.89,95,98,5.21,overcast clouds
335,Ponta Delgada,PT,2021-11-04,37.7333,-25.6667,70.5,77,40,19.57,scattered clouds
336,Souillac,MU,2021-11-04,-20.5167,57.5167,73.78,83,20,3.44,few clouds
337,Bud,US,2021-11-04,39.447,-86.1758,49.82,50,1,4.99,clear sky
338,Kidal,ML,2021-11-04,18.4411,1.4078,88.21,11,0,4.85,clear sky
339,Ancud,CL,2021-11-04,-41.8697,-73.8203,54.93,64,85,9.22,overcast clouds
340,Rzhyshchiv,UA,2021-11-04,49.9689,31.0463,51.17,80,98,13.98,overcast clouds
341,Lahaina,US,2021-11-04,20.8783,-156.6825,77.81,90,9,9.13,light rain
342,Do Gonbadan,IR,2021-11-04,30.3586,50.7981,71.69,46,0,0.0,clear sky
343,Midyat,TR,2021-11-04,37.4247,41.3393,65.48,51,0,8.08,clear sky
344,Bundoran,IE,2021-11-04,54.4778,-8.2809,49.91,77,58,10.49,broken clouds
345,Hede,CN,2021-11-04,33.7681,120.2517,62.71,74,75,11.23,broken clouds
346,Kjollefjord,NO,2021-11-04,70.9457,27.3465,37.18,69,94,4.43,overcast clouds
347,Adrar,MR,2021-11-04,20.5022,-10.0711,83.16,16,5,4.54,clear sky
348,Saint Anthony,US,2021-11-04,45.0205,-93.218,51.15,70,1,1.01,clear sky
349,Mozarlandia,BR,2021-11-04,-14.7447,-50.5706,87.46,51,75,4.65,broken clouds
350,Brokopondo,SR,2021-11-04,4.75,-55.1667,89.33,50,51,0.94,broken clouds
351,Ranong,TH,2021-11-04,9.9658,98.6348,77.13,89,97,3.69,overcast clouds
352,Tilichiki,RU,2021-11-04,60.4667,166.1,10.76,95,93,5.82,light snow
353,Gopalpur,IN,2021-11-04,19.2667,84.9167,76.8,75,65,2.71,broken clouds
354,Saint-Joseph,RE,2021-11-04,-21.3667,55.6167,73.78,80,13,4.59,few clouds
355,Luganville,VU,2021-11-04,-15.5333,167.1667,76.53,88,100,3.11,overcast clouds
356,Narsaq,GL,2021-11-04,60.9167,-46.05,33.85,98,100,4.68,light rain
357,Ayna,PE,2021-11-04,-12.65,-73.9167,84.7,59,70,5.01,broken clouds
358,Bouna,CI,2021-11-04,9.2667,-3.0,87.26,37,60,3.58,broken clouds
359,Auki,SB,2021-11-04,-8.7676,160.7034,75.92,87,100,3.8,overcast clouds
360,Chapais,CA,2021-11-04,49.7834,-74.8492,26.38,60,95,8.1,overcast clouds
361,Erenhot,CN,2021-11-04,43.6475,111.9767,43.09,41,16,8.14,few clouds
362,Borba,BR,2021-11-04,-4.3878,-59.5939,93.6,44,92,5.79,overcast clouds
363,Rosarito,MX,2021-11-04,32.3333,-117.0333,83.41,68,0,6.58,clear sky
364,Tandil,AR,2021-11-04,-37.3217,-59.1332,67.21,88,97,7.94,overcast clouds
365,Gorlitz,DE,2021-11-04,51.1552,14.9885,46.69,87,100,15.01,overcast clouds
366,Pachino,IT,2021-11-04,36.7186,15.0907,69.84,85,56,5.06,broken clouds
367,Prince Rupert,CA,2021-11-04,54.3161,-130.3201,47.89,97,100,1.14,moderate rain
368,Kamenka,RU,2021-11-04,51.3223,42.7678,46.72,68,100,10.69,overcast clouds
369,Jumla,NP,2021-11-04,29.2747,82.1838,40.37,72,5,3.87,clear sky
370,Black River,JM,2021-11-04,18.0264,-77.8487,86.0,62,21,7.43,few clouds
371,Bonthe,SL,2021-11-04,7.5264,-12.505,81.55,74,52,7.63,light rain
372,Dunedin,NZ,2021-11-04,-45.8742,170.5036,47.8,84,33,3.44,scattered clouds
373,Cuamba,MZ,2021-11-04,-14.8031,36.5372,86.09,22,67,5.48,broken clouds
374,Sorong,ID,2021-11-04,-0.8833,131.25,80.35,83,100,8.39,overcast clouds
375,Ribeira Grande,PT,2021-11-04,38.5167,-28.7,70.2,88,75,23.02,broken clouds
376,Tezu,IN,2021-11-04,27.9167,96.1667,62.42,40,0,4.79,clear sky
377,Soria,ES,2021-11-04,41.6667,-2.6667,38.86,92,92,6.4,overcast clouds
378,Zilair,RU,2021-11-04,52.2332,57.4392,22.24,38,1,4.74,clear sky
379,Dunmore Town,BS,2021-11-04,25.5,-76.65,78.49,70,59,6.38,broken clouds
380,Cascais,PT,2021-11-04,38.6979,-9.4215,60.66,60,0,1.99,clear sky
381,Los Llanos De Aridane,ES,2021-11-04,28.6585,-17.9182,71.13,75,75,3.0,broken clouds
382,Kathmandu,NP,2021-11-04,27.7167,85.3167,55.62,94,20,3.44,few clouds
383,Qaqortoq,GL,2021-11-04,60.7167,-46.0333,33.94,94,100,6.06,light rain
384,Chandvad,IN,2021-11-04,20.3333,74.25,68.77,50,43,6.31,scattered clouds
385,Margate,GB,2021-11-04,51.3813,1.3862,47.97,86,86,25.55,overcast clouds
386,Andilamena,MG,2021-11-04,-17.0167,48.5833,68.22,86,7,3.62,clear sky
387,Zykovo,RU,2021-11-04,55.9519,93.1461,5.74,69,99,10.96,overcast clouds
388,Daru,PG,2021-11-04,-9.0763,143.2092,78.42,85,47,13.18,scattered clouds
389,Xixiang,CN,2021-11-04,35.1628,112.865,60.37,75,100,5.28,overcast clouds
390,Stromness,GB,2021-11-04,58.965,-3.296,48.87,86,98,10.0,overcast clouds
391,Klaksvik,FO,2021-11-04,62.2266,-6.589,43.72,78,95,20.45,overcast clouds
392,Sapele,NG,2021-11-04,5.8941,5.6767,77.81,90,98,4.72,light rain
393,Bose,IT,2021-11-04,45.4612,8.0137,50.49,70,2,7.14,light rain
394,Yambio,SS,2021-11-04,4.5721,28.3955,69.49,96,96,1.72,light rain
395,Vanimo,PG,2021-11-04,-2.6741,141.3028,76.35,90,98,5.32,overcast clouds
396,Pringsewu,ID,2021-11-04,-5.3582,104.9744,74.08,95,93,4.12,overcast clouds
397,Luquillo,PR,2021-11-04,18.3725,-65.7166,88.75,68,12,10.96,few clouds
398,Roald,NO,2021-11-04,62.5833,6.1333,46.33,87,75,5.75,broken clouds
399,Sheridan,US,2021-11-04,44.8333,-106.9173,71.31,33,82,5.08,broken clouds
400,Macusani,PE,2021-11-04,-14.0833,-70.4333,50.86,51,71,11.54,broken clouds
401,Luderitz,NA,2021-11-04,-26.6481,15.1594,62.74,74,31,19.48,scattered clouds
402,Nueva Gerona,CU,2021-11-04,21.8833,-82.8,83.19,64,99,11.25,overcast clouds
403,Kemijarvi,FI,2021-11-04,66.7131,27.4306,34.54,99,100,2.71,light snow
404,Vostok,RU,2021-11-04,46.4856,135.8833,35.92,87,95,1.3,overcast clouds
405,Tuensang,IN,2021-11-04,26.2833,94.8333,57.94,96,83,2.48,broken clouds
406,Minab,IR,2021-11-04,27.1467,57.0801,81.9,64,0,2.37,clear sky
407,Lamesa,US,2021-11-04,32.7376,-101.951,55.08,54,0,2.75,clear sky
408,Serebryansk,KZ,2021-11-04,49.6925,83.2892,0.95,97,91,3.89,overcast clouds
409,Ofunato,JP,2021-11-04,39.0717,141.7167,49.59,82,28,7.65,scattered clouds
410,Kedougou,SN,2021-11-04,12.5579,-12.1743,93.78,59,40,6.91,thunderstorm
411,Kindberg,AT,2021-11-04,47.5,15.45,48.25,93,78,4.09,broken clouds
412,Gao,ML,2021-11-04,16.6362,1.637,89.44,11,3,6.87,clear sky
413,Chik,RU,2021-11-04,54.9928,82.4311,10.15,79,0,8.95,clear sky
414,Nanakuli,US,2021-11-04,21.3906,-158.1547,77.11,94,75,3.44,broken clouds
415,Xiamen,CN,2021-11-04,24.4798,118.0819,69.85,88,30,2.24,scattered clouds
416,Orlik,RU,2021-11-04,52.5178,99.825,-7.55,73,12,3.78,few clouds
417,Olinda,BR,2021-11-04,-8.0089,-34.8553,85.73,62,40,10.36,scattered clouds
418,Victoria,HK,2021-11-04,22.2855,114.1577,78.85,86,41,7.0,scattered clouds
419,Boralday,KZ,2021-11-04,43.3578,76.8594,3.06,85,10,2.24,mist
420,Kungurtug,RU,2021-11-04,50.5994,97.5228,-6.34,88,85,0.56,overcast clouds
421,Rebrikha,RU,2021-11-04,53.0733,82.3408,11.03,86,92,10.38,overcast clouds
422,Port-Gentil,GA,2021-11-04,-0.7193,8.7815,80.56,83,75,9.22,broken clouds
423,Khromtau,KZ,2021-11-04,50.2503,58.4347,21.96,40,0,7.72,clear sky
424,Saint-Georges,GD,2021-11-04,12.0564,-61.7485,85.68,66,20,19.57,few clouds
425,Richards Bay,ZA,2021-11-04,-28.783,32.0377,69.98,76,21,12.24,few clouds
426,Phek,IN,2021-11-04,25.6667,94.5,47.07,98,88,1.25,overcast clouds
427,Altay,CN,2021-11-04,47.8667,88.1167,4.55,55,0,3.67,clear sky
428,Garden City,US,2021-11-04,42.3256,-83.331,46.15,62,16,1.99,few clouds
429,Marsaxlokk,MT,2021-11-04,35.8419,14.5431,74.08,88,0,9.22,clear sky
430,Yeppoon,AU,2021-11-04,-23.1333,150.7333,65.98,68,31,12.24,scattered clouds
431,Ilinge,ZA,2021-11-04,-31.9768,27.0427,59.61,74,67,7.05,broken clouds
432,Westport,US,2021-11-04,41.1415,-73.3579,53.38,43,49,1.99,scattered clouds
433,Kewanee,US,2021-11-04,41.2456,-89.9248,48.74,46,8,8.84,clear sky
434,Dingle,PH,2021-11-04,10.9995,122.6711,75.72,94,100,4.88,overcast clouds
435,Beira,MZ,2021-11-04,-19.8436,34.8389,78.89,83,40,15.99,scattered clouds
436,La Rioja,ES,2021-11-04,42.25,-2.5,41.49,97,98,4.7,overcast clouds
437,Matagami,CA,2021-11-04,49.7502,-77.6328,28.51,69,75,10.36,broken clouds
438,Roros,NO,2021-11-04,62.5747,11.3842,30.04,100,20,2.3,fog
439,Lompoc,US,2021-11-04,34.6391,-120.4579,74.84,72,14,17.0,few clouds
440,Tessalit,ML,2021-11-04,20.1986,1.0114,88.75,10,0,8.75,clear sky
441,Pangnirtung,CA,2021-11-04,66.1451,-65.7125,21.2,68,75,0.0,broken clouds
442,Starosubkhangulovo,RU,2021-11-04,53.1031,57.4423,23.16,40,3,4.05,clear sky
443,Grenaa,DK,2021-11-04,56.4158,10.8783,45.95,92,100,19.3,overcast clouds
444,Salalah,OM,2021-11-04,17.0151,54.0924,77.41,72,5,2.3,clear sky
445,Caluquembe,AO,2021-11-04,-13.7833,14.6833,67.5,65,99,3.02,overcast clouds
446,Saint-Ambroise,CA,2021-11-04,48.5501,-71.3324,33.58,69,99,3.44,overcast clouds
447,Vestmannaeyjar,IS,2021-11-04,63.4427,-20.2734,45.59,81,90,17.27,overcast clouds
448,Moerai,PF,2021-11-04,-22.4333,-151.3333,73.96,72,86,12.62,overcast clouds
449,Sakyla,FI,2021-11-04,61.0333,22.3333,44.64,93,100,5.82,overcast clouds
450,Kodinsk,RU,2021-11-04,58.6881,99.1844,8.73,92,100,9.26,light snow
451,Windsor,CA,2021-11-04,42.3001,-83.0165,46.22,59,90,1.01,overcast clouds
452,Bairiki,KI,2021-11-04,1.3292,172.9752,78.8,83,40,8.05,light rain
453,Uruacu,BR,2021-11-04,-14.5247,-49.1408,81.55,68,94,4.14,overcast clouds
454,Mogadishu,SO,2021-11-04,2.0371,45.3438,79.59,78,100,12.33,overcast clouds
455,Esmeraldas,BR,2021-11-04,-19.7625,-44.3139,86.86,49,59,8.9,broken clouds
456,Valverde Del Camino,ES,2021-11-04,37.5751,-6.7543,58.84,52,4,6.2,clear sky
457,Gurupi,BR,2021-11-04,-11.7292,-49.0686,82.9,68,81,7.02,moderate rain
458,Sabha,LY,2021-11-04,27.0377,14.4283,79.84,15,25,6.26,scattered clouds
459,De Haan,BE,2021-11-04,51.272,3.0429,50.0,84,75,4.0,light intensity shower rain
460,Tromso,NO,2021-11-04,69.6496,18.957,37.42,81,75,0.0,broken clouds
461,Acajutla,SV,2021-11-04,13.5928,-89.8275,85.44,59,49,7.0,scattered clouds
462,Alta Floresta,BR,2021-11-04,-9.8756,-56.0861,91.22,52,40,8.05,scattered clouds
463,Amalapuram,IN,2021-11-04,16.5833,82.0167,74.61,94,100,4.85,overcast clouds
464,Kedrovyy,RU,2021-11-04,56.1667,91.8167,3.61,82,92,9.71,overcast clouds
465,Naze,JP,2021-11-04,28.3667,129.4833,65.57,66,90,9.24,overcast clouds
466,Nadbai,IN,2021-11-04,27.2333,77.2,71.69,34,2,0.16,clear sky
467,Riviere-Au-Renard,CA,2021-11-04,48.9957,-64.3971,38.62,52,77,16.87,broken clouds
468,Heishan,CN,2021-11-04,41.6892,122.1128,48.85,96,0,6.62,clear sky
469,Alekseyevsk,RU,2021-11-04,57.8406,108.3492,6.57,77,100,8.34,overcast clouds
470,Inongo,CD,2021-11-04,-1.95,18.2667,72.73,92,45,4.05,scattered clouds
471,Tanout,NE,2021-11-04,14.9709,8.8879,90.27,13,4,12.26,clear sky
472,Kojnare,BG,2021-11-04,43.35,24.1333,62.73,64,66,2.42,broken clouds
473,Berlevag,NO,2021-11-04,70.8578,29.0864,37.35,52,75,11.5,broken clouds
474,Mazamari,PE,2021-11-04,-11.3258,-74.5308,90.81,44,60,3.85,broken clouds
475,Rajura,IN,2021-11-04,19.7833,79.3667,76.3,63,78,2.8,broken clouds
476,Hambantota,LK,2021-11-04,6.1241,81.1185,79.48,82,77,12.59,broken clouds
477,Tlacotepec,MX,2021-11-04,20.0667,-97.8667,64.0,79,72,6.29,broken clouds
478,Kudahuvadhoo,MV,2021-11-04,2.6708,72.8944,82.8,76,95,15.32,overcast clouds
479,Mandalgovi,MN,2021-11-04,45.7625,106.2708,15.67,53,100,25.77,overcast clouds
480,Ribas Do Rio Pardo,BR,2021-11-04,-20.4431,-53.7592,86.77,48,53,8.12,broken clouds
481,Chifeng,CN,2021-11-04,42.2683,118.9636,44.13,50,0,5.01,clear sky
482,Pascagoula,US,2021-11-04,30.3658,-88.5561,66.25,77,91,8.43,overcast clouds
483,Edd,ER,2021-11-04,13.9297,41.6925,85.51,52,6,8.08,clear sky
484,Zhigansk,RU,2021-11-04,66.7697,123.3711,-13.38,94,21,10.13,few clouds
485,Nelson Bay,AU,2021-11-04,-32.7167,152.15,66.25,81,100,1.99,overcast clouds
486,Carutapera,BR,2021-11-04,-1.195,-46.02,87.06,59,55,7.27,broken clouds
487,Acarau,BR,2021-11-04,-2.8856,-40.12,86.85,57,49,15.73,scattered clouds
488,Honiara,SB,2021-11-04,-9.4333,159.95,76.6,87,100,1.19,overcast clouds
489,Lima,PE,2021-11-04,-12.0432,-77.0282,69.13,68,98,9.46,overcast clouds
490,Ciudad Bolivar,VE,2021-11-04,8.1222,-63.5497,88.52,53,99,7.83,overcast clouds
491,Kankaanpaa,FI,2021-11-04,61.8,22.4167,44.8,93,100,5.5,overcast clouds
492,Kibala,TD,2021-11-04,9.1104,18.3463,81.73,64,100,2.62,overcast clouds
493,Zeya,RU,2021-11-04,53.75,127.2667,31.89,97,100,5.61,overcast clouds
494,Marzuq,YE,2021-11-04,14.4,46.4667,71.92,28,0,0.72,clear sky
495,Marawi,PH,2021-11-04,7.9986,124.2928,67.64,93,93,2.91,overcast clouds
496,Gamba,GA,2021-11-04,-2.65,10.0,77.61,86,90,7.16,overcast clouds
497,Dudinka,RU,2021-11-04,69.4058,86.1778,30.43,97,100,24.16,snow
498,Damghan,IR,2021-11-04,36.1683,54.348,56.05,65,60,4.25,broken clouds
499,Te Anau,NZ,2021-11-04,-45.4167,167.7167,42.17,95,75,1.1,broken clouds
500,Mineral Wells,US,2021-11-04,32.8085,-98.1128,54.34,69,100,2.19,overcast clouds
501,Emba,KZ,2021-11-04,48.8264,58.1442,24.89,36,0,8.72,clear sky
502,Katsuura,JP,2021-11-04,35.1333,140.3,59.14,68,22,10.76,few clouds
503,Carcassonne,FR,2021-11-04,43.25,2.1667,51.67,80,0,5.75,clear sky
504,Guider,CM,2021-11-04,9.9342,13.9486,88.39,23,61,4.56,broken clouds
505,Banfora,BF,2021-11-04,10.6333,-4.7667,87.22,36,33,1.14,scattered clouds
506,Redlands,US,2021-11-04,34.0556,-117.1825,85.93,34,1,0.0,haze
507,Durant,US,2021-11-04,33.994,-96.3708,55.11,75,90,0.0,overcast clouds
508,Kyshtovka,RU,2021-11-04,56.555,76.6271,16.18,97,99,8.52,overcast clouds
509,Kaeo,NZ,2021-11-04,-35.1,173.7833,58.32,96,100,5.61,overcast clouds
510,Alyangula,AU,2021-11-04,-13.8483,136.4192,80.56,79,16,3.98,few clouds
511,Safaga,EG,2021-11-04,26.7292,33.9365,78.87,58,0,11.65,clear sky
512,Tura,IN,2021-11-04,25.5198,90.2201,63.19,84,87,3.29,overcast clouds
513,Sur,OM,2021-11-04,22.5667,59.5289,76.35,63,6,5.99,clear sky
514,Haveli,PK,2021-11-04,30.4502,73.6989,70.38,29,0,5.28,clear sky
515,Yar-Sale,RU,2021-11-04,66.8333,70.8333,31.51,88,38,22.26,scattered clouds
516,Pokhara,NP,2021-11-04,28.2333,83.9833,57.76,58,1,5.88,clear sky
517,Rapar,IN,2021-11-04,23.5667,70.6333,79.77,30,30,4.23,scattered clouds
518,Igarka,RU,2021-11-04,67.4667,86.5833,26.53,93,100,20.56,overcast clouds
519,Voyvozh,RU,2021-11-04,62.892,54.9635,31.87,95,100,11.54,light snow
520,Pozoblanco,ES,2021-11-04,38.3791,-4.8483,52.38,66,5,5.79,clear sky
521,Bolgatanga,GH,2021-11-04,10.7856,-0.8514,91.58,22,44,4.81,scattered clouds
522,Korla,CN,2021-11-04,41.7597,86.1469,39.02,34,99,26.22,overcast clouds
523,Boende,CD,2021-11-04,-0.2167,20.8667,74.12,92,77,2.93,light rain
524,Sept-Iles,CA,2021-11-04,50.2001,-66.3821,38.05,52,20,4.0,few clouds
525,Phan Thiet,VN,2021-11-04,10.9333,108.1,75.83,89,78,3.56,broken clouds
526,Vinkovci,HR,2021-11-04,45.2883,18.8047,60.89,100,40,6.91,light rain
527,Ntchisi,MW,2021-11-04,-13.5278,33.9149,72.41,41,2,2.48,clear sky
528,Edson,CA,2021-11-04,53.5835,-116.4356,30.31,86,90,0.0,light snow
529,Namibe,AO,2021-11-04,-15.1961,12.1522,66.79,82,76,6.51,broken clouds
530,Nioro,GM,2021-11-04,13.35,-15.75,87.06,55,43,2.35,scattered clouds
531,Anadyr,RU,2021-11-04,64.75,177.4833,-20.51,99,66,9.08,broken clouds
532,Manado,ID,2021-11-04,1.487,124.8455,75.97,94,75,5.75,thunderstorm
533,Ixtapa,MX,2021-11-04,20.7,-105.2,84.22,76,23,5.99,few clouds
534,Hirado,JP,2021-11-04,33.3597,129.5531,58.35,61,61,8.12,broken clouds
535,Tahoua,NE,2021-11-04,14.8888,5.2692,90.64,15,2,10.18,clear sky
536,Luanda,AO,2021-11-04,-8.8368,13.2343,78.8,78,20,11.5,few clouds
537,Komsomolets,KZ,2021-11-04,53.7453,62.0708,28.06,36,13,13.18,few clouds
538,Emerald,AU,2021-11-04,-23.5333,148.1667,67.33,69,8,11.74,clear sky
539,Port Hardy,CA,2021-11-04,50.6996,-127.4199,51.31,92,100,16.53,light rain
540,Karakol,KG,2021-11-04,42.4907,78.3936,13.39,79,100,6.91,overcast clouds
541,Burnie,AU,2021-11-04,-41.0667,145.9167,52.02,87,21,8.86,few clouds
542,San Juan Del Sur,NI,2021-11-04,11.2529,-85.8705,81.88,73,93,9.84,overcast clouds
543,Arroyo,ES,2021-11-04,41.6096,-4.7969,48.15,65,20,9.22,few clouds
544,Sabang,ID,2021-11-04,5.8933,95.3214,81.34,74,100,5.61,moderate rain
545,Cabo San Lucas,MX,2021-11-04,22.8909,-109.9124,87.06,53,0,4.05,clear sky
546,Port Moresby,PG,2021-11-04,-9.4431,147.1797,75.15,85,83,4.97,broken clouds
547,Cayenne,GF,2021-11-04,4.9333,-52.3333,89.64,77,0,3.0,clear sky
548,Ibra,OM,2021-11-04,22.6906,58.5334,72.34,50,3,0.96,clear sky
549,Sinegorye,RU,2021-11-04,62.0788,150.477,3.11,89,6,5.91,clear sky
550,Kloulklubed,PW,2021-11-04,7.0419,134.2556,79.3,75,100,9.35,overcast clouds
551,Ahipara,NZ,2021-11-04,-35.1667,173.1667,57.18,95,100,5.82,light rain
552,Tyukhtet,RU,2021-11-04,56.5389,89.3011,8.76,81,91,13.27,overcast clouds
553,Opole,PL,2021-11-04,50.5,18.0,48.22,77,46,11.12,scattered clouds
554,Hondo,JP,2021-11-04,32.45,130.2,58.95,63,64,9.69,broken clouds
555,The Valley,AI,2021-11-04,18.217,-63.0578,86.14,70,40,12.66,scattered clouds
556,Acapulco,MX,2021-11-04,16.8634,-99.8901,83.19,73,95,3.51,overcast clouds
557,Pitimbu,BR,2021-11-04,-7.4706,-34.8086,86.59,65,27,10.0,scattered clouds
558,Bethanien,NA,2021-11-04,-26.502,17.1583,80.78,11,74,16.58,broken clouds
559,Constitucion,CL,2021-11-04,-35.3333,-72.4167,62.87,45,0,24.11,clear sky
560,Cilegon,ID,2021-11-04,-6.0174,106.0538,78.69,85,99,6.53,overcast clouds
561,Brasileia,BR,2021-11-04,-11.0161,-68.7481,93.04,42,97,5.26,overcast clouds
562,Port-Cartier,CA,2021-11-04,50.0334,-66.8654,37.74,37,14,6.42,few clouds
563,Havoysund,NO,2021-11-04,70.9963,24.6622,32.88,68,99,7.0,overcast clouds
564,Kovdor,RU,2021-11-04,67.5662,30.4758,32.47,99,100,3.49,light snow
565,High Level,CA,2021-11-04,58.5169,-117.136,24.91,93,40,0.0,smoke
566,Liverpool,GB,2021-11-04,53.4106,-2.9779,45.82,76,0,1.99,clear sky
567,Almaznyy,RU,2021-11-04,48.0448,40.045,51.94,93,93,6.64,overcast clouds
568,Lake Havasu City,US,2021-11-04,34.4839,-114.3224,76.23,25,1,1.99,clear sky
569,Puerto Madryn,AR,2021-11-04,-42.7692,-65.0385,64.62,17,2,20.54,clear sky
570,Concepcion,CL,2021-11-04,-36.827,-73.0498,60.6,51,20,14.97,few clouds
571,Pinsk,BY,2021-11-04,52.1229,26.0951,54.66,79,100,14.72,overcast clouds
572,Znamenka,RU,2021-11-04,52.4167,41.4311,46.6,73,100,10.98,overcast clouds
573,Abeche,TD,2021-11-04,13.8292,20.8324,89.82,16,99,9.35,overcast clouds
574,Contamana,PE,2021-11-04,-7.3333,-75.0167,96.37,38,86,4.12,overcast clouds
575,Noyabrsk,RU,2021-11-04,63.1994,75.4507,24.13,94,99,16.58,overcast clouds
576,San Jose,US,2021-11-04,37.3394,-121.895,65.64,74,75,8.05,haze
577,Garmsar,IR,2021-11-04,35.2182,52.3409,64.47,53,100,5.77,overcast clouds
578,Jobat,IN,2021-11-04,22.4167,74.5667,71.28,47,94,5.14,overcast clouds
579,Port Augusta,AU,2021-11-04,-32.5,137.7667,51.94,37,65,6.62,broken clouds
580,Sekoma,BW,2021-11-04,-24.4,23.8833,87.84,11,78,6.82,broken clouds
581,Guadalupe Y Calvo,MX,2021-11-04,26.1,-106.9667,67.84,29,0,3.29,clear sky
582,Goderich,CA,2021-11-04,43.7501,-81.7165,43.92,61,97,10.07,overcast clouds
583,Talcahuano,CL,2021-11-04,-36.7167,-73.1167,62.28,45,20,16.11,few clouds
584,Kirakira,SB,2021-11-04,-10.4544,161.9205,78.84,84,100,4.59,overcast clouds
585,Weinan,CN,2021-11-04,34.5036,109.5089,57.92,76,70,3.74,broken clouds
586,Mindelo,CV,2021-11-04,16.8901,-24.9804,78.35,73,75,18.41,broken clouds
587,Takaka,NZ,2021-11-04,-40.85,172.8,55.56,68,100,5.91,overcast clouds
588,Tutoia,BR,2021-11-04,-2.7619,-42.2744,87.78,65,63,11.23,broken clouds
589,Cheney,US,2021-11-04,47.4874,-117.5758,48.76,95,90,12.66,mist
590,Smithers,CA,2021-11-04,54.7804,-127.1743,35.92,100,90,0.0,light rain
591,Calama,CL,2021-11-04,-22.4667,-68.9333,72.09,12,0,21.85,clear sky
592,Jalu,LY,2021-11-04,29.0331,21.5482,81.25,23,0,7.9,clear sky
593,San Vicente,AR,2021-11-04,-26.6167,-54.1333,87.73,41,64,2.71,broken clouds
594,Taganak,PH,2021-11-04,6.0833,118.3,82.87,75,86,1.16,overcast clouds
595,Biak,ID,2021-11-04,-0.9131,122.8766,76.66,86,100,1.01,light rain
596,Lugovoy,KZ,2021-11-04,42.9472,72.7644,8.62,89,24,4.5,few clouds
597,Rota,ES,2021-11-04,36.6224,-6.3586,61.21,51,20,8.05,few clouds
598,Viedma,AR,2021-11-04,-40.8135,-62.9967,63.1,25,100,14.25,overcast clouds
599,Hurghada,EG,2021-11-04,27.2574,33.8129,77.04,51,0,11.45,clear sky
600,Asosa,ET,2021-11-04,10.0667,34.5333,60.71,86,86,3.74,overcast clouds
601,Grand-Santi,GF,2021-11-04,4.25,-54.3833,93.42,37,94,4.23,overcast clouds
602,Am Timan,TD,2021-11-04,11.0297,20.2827,84.7,34,78,5.17,broken clouds
603,Ariquemes,BR,2021-11-04,-9.9133,-63.0408,88.95,54,73,5.39,broken clouds
604,Malakal,SS,2021-11-04,9.5334,31.6605,82.31,52,28,5.06,scattered clouds
605,Stornoway,GB,2021-11-04,58.2093,-6.3865,48.92,100,75,8.05,mist
606,Otjiwarongo,NA,2021-11-04,-20.4637,16.6477,81.97,11,59,17.49,broken clouds
607,Havre-Saint-Pierre,CA,2021-11-04,50.2334,-63.5986,38.59,37,63,11.97,broken clouds
608,Kastamonu,TR,2021-11-04,41.5,33.6667,52.74,73,3,1.9,clear sky
609,Rach Gia,VN,2021-11-04,10.0167,105.0833,76.95,89,89,7.31,overcast clouds
610,Sakakah,SA,2021-11-04,29.9697,40.2064,73.11,41,0,7.36,clear sky
611,Tual,ID,2021-11-04,-5.6667,132.75,83.68,77,100,10.92,overcast clouds
612,Savinskiy,RU,2021-11-04,62.9342,40.1361,41.02,97,100,6.53,overcast clouds
613,Jinka,ET,2021-11-04,5.65,36.65,70.2,40,21,1.19,few clouds
614,Jiangyou,CN,2021-11-04,31.7667,104.7167,57.99,90,98,2.44,light rain
615,Duarte,US,2021-11-04,34.1394,-117.9773,88.18,48,0,3.85,clear sky
616,Panguna,PG,2021-11-04,-6.3164,155.4848,69.35,94,100,4.21,overcast clouds
617,Zaysan,KZ,2021-11-04,47.4667,84.8667,4.64,71,20,8.77,few clouds
618,Dharchula,IN,2021-11-04,29.85,80.5333,51.75,40,0,7.07,clear sky
619,Kabanjahe,ID,2021-11-04,3.1001,98.4908,65.16,98,100,2.8,light rain
620,Ouesso,CG,2021-11-04,1.6136,16.0517,77.94,76,80,2.44,broken clouds
621,Dicabisagan,PH,2021-11-04,17.0818,122.4157,76.17,85,67,5.99,broken clouds
622,Mwene-Ditu,CD,2021-11-04,-7.0,23.45,71.83,71,35,3.98,light rain
623,Kokopo,PG,2021-11-04,-4.352,152.2633,77.31,85,96,4.45,overcast clouds
624,Chake Chake,TZ,2021-11-04,-5.2459,39.7666,77.13,85,14,6.64,few clouds
625,Williams Lake,CA,2021-11-04,52.1415,-122.1445,42.22,79,100,3.0,overcast clouds
626,Shubarshi,KZ,2021-11-04,48.5872,57.1869,26.47,33,0,11.23,clear sky
627,Kang,BW,2021-11-04,-23.6752,22.7876,87.08,10,59,4.12,broken clouds
628,Urumqi,CN,2021-11-04,43.801,87.6005,14.95,79,75,4.47,light snow
629,Bonavista,CA,2021-11-04,48.6499,-53.1147,45.12,84,78,24.63,broken clouds
630,Okha,RU,2021-11-04,53.5739,142.9478,29.57,97,43,4.83,scattered clouds
631,Xunchang,CN,2021-11-04,28.4543,104.715,60.26,93,100,2.3,overcast clouds
632,Mae Sai,TH,2021-11-04,20.4335,99.8762,73.44,99,73,1.39,broken clouds
633,Abha,SA,2021-11-04,18.2164,42.5053,57.45,88,0,0.0,clear sky
634,Skegness,GB,2021-11-04,53.1436,0.3363,46.35,77,84,22.1,broken clouds
635,Tazovskiy,RU,2021-11-04,67.4667,78.7,29.1,93,100,21.16,overcast clouds
636,Ellisras,ZA,2021-11-04,-23.6649,27.7443,85.32,32,43,12.1,scattered clouds
637,Shima,CN,2021-11-04,24.4478,117.8111,67.37,90,31,1.01,scattered clouds
638,Mount Isa,AU,2021-11-04,-20.7333,139.5,73.17,64,2,1.14,light rain
639,Brattleboro,US,2021-11-04,42.8509,-72.5579,50.14,55,33,3.0,scattered clouds
640,Usinsk,RU,2021-11-04,65.9939,57.5281,34.02,100,100,19.28,light rain
641,Carolina,PR,2021-11-04,18.3808,-65.9574,88.72,62,20,14.97,few clouds
642,Spokoynaya,RU,2021-11-04,44.2468,41.4015,50.2,90,35,2.91,scattered clouds
643,Kurdzhinovo,RU,2021-11-04,43.9884,40.9552,50.14,87,49,4.85,scattered clouds
644,Carahue,CL,2021-11-04,-38.7,-73.1667,58.39,37,17,9.71,few clouds
645,Mandera,KE,2021-11-04,3.9366,41.867,86.81,44,38,12.5,scattered clouds
646,Selikhino,RU,2021-11-04,50.3672,137.4996,32.9,83,18,5.12,few clouds
647,Springbok,ZA,2021-11-04,-29.6643,17.8865,64.96,41,0,6.2,clear sky
648,Bridgetown,BB,2021-11-04,13.1,-59.6167,82.42,68,98,15.86,overcast clouds
649,Gambela,ET,2021-11-04,8.25,34.5833,75.81,72,29,4.29,scattered clouds
650,Tazmalt,DZ,2021-11-04,36.3868,4.3989,57.38,71,74,5.26,broken clouds
651,Mayumba,GA,2021-11-04,-3.432,10.6554,78.03,86,88,5.82,overcast clouds
652,Tirumullaivasal,IN,2021-11-04,11.2333,79.8333,78.87,85,99,4.76,light rain
653,Mongar,BT,2021-11-04,27.2747,91.2396,44.76,76,14,5.84,few clouds
654,West Plains,US,2021-11-04,36.7281,-91.8524,52.63,45,1,1.99,clear sky
655,Russell,US,2021-11-04,32.3502,-85.1999,61.88,64,90,3.44,overcast clouds
656,Inhambane,MZ,2021-11-04,-23.865,35.3833,73.38,88,20,4.61,few clouds
657,Aykhal,RU,2021-11-04,66.0,111.5,-7.13,96,80,19.1,broken clouds
658,Manitouwadge,CA,2021-11-04,49.1215,-85.8403,40.73,50,88,11.5,overcast clouds
659,Surt,LY,2021-11-04,31.2089,16.5887,84.02,28,94,10.56,overcast clouds
660,Lemon Grove,US,2021-11-04,32.7426,-117.0314,88.36,70,1,3.0,haze
661,Santa Fe Do Sul,BR,2021-11-04,-20.2111,-50.9258,91.6,34,14,6.11,few clouds
662,Iberia,US,2021-11-04,29.9502,-91.7507,59.97,77,20,12.66,few clouds
663,Itacoatiara,BR,2021-11-04,-3.1431,-58.4442,91.78,46,100,1.92,overcast clouds
664,Tigil,RU,2021-11-04,57.8,158.6667,32.72,90,100,10.74,overcast clouds
665,Kushmurun,KZ,2021-11-04,52.4503,64.6311,23.34,38,8,10.51,clear sky
666,Ejido,VE,2021-11-04,8.5514,-71.2375,74.61,86,63,4.12,broken clouds
667,Sovetskiy,RU,2021-11-04,61.3614,63.5842,30.43,86,64,10.78,broken clouds
668,Muros,ES,2021-11-04,42.7762,-9.0603,57.83,83,6,11.79,clear sky
669,Mayo,US,2021-11-04,38.8876,-76.5119,53.82,50,1,8.01,clear sky
670,Palanga,LT,2021-11-04,55.9175,21.0686,46.42,100,90,12.66,moderate rain
671,Tungor,RU,2021-11-04,53.3808,142.9564,28.0,98,24,4.94,few clouds
672,Petropavlovsk-Kamchatskiy,RU,2021-11-04,53.0452,158.6483,27.68,67,6,6.31,clear sky
673,Luang Prabang,LA,2021-11-04,19.8856,102.1347,69.67,93,52,0.85,broken clouds
674,Khandyga,RU,2021-11-04,62.6667,135.6,6.73,93,96,4.23,overcast clouds
675,Rio Gallegos,AR,2021-11-04,-51.6226,-69.2181,64.45,24,75,27.63,broken clouds
676,Sao Paulo De Olivenca,BR,2021-11-04,-3.3783,-68.8725,88.75,58,92,2.68,moderate rain
677,Syracuse,IT,2021-11-04,37.0881,15.2792,70.97,85,92,6.42,overcast clouds
678,Toamasina,MG,2021-11-04,-18.1667,49.3833,74.35,85,1,9.22,clear sky
679,Jining,CN,2021-11-04,35.405,116.5814,57.96,70,99,6.91,overcast clouds
680,Pimentel,PE,2021-11-04,-6.8367,-79.9342,73.69,56,0,12.66,clear sky
681,Ucluelet,CA,2021-11-04,48.9329,-125.5528,57.04,93,100,3.0,overcast clouds
682,Kautokeino,NO,2021-11-04,69.0125,23.0412,29.23,95,98,10.22,light snow
683,Tiarei,PF,2021-11-04,-17.5333,-149.3333,80.62,77,35,16.53,scattered clouds
684,Manicore,BR,2021-11-04,-5.8092,-61.3003,88.21,62,83,2.71,broken clouds
685,Kharela,IN,2021-11-04,25.55,79.8167,72.75,38,4,5.55,clear sky
